{
  "30594": {
    "id": "30594",
    "recycle_cities_id": 5,
    "lat": "56.023238",
    "lng": "37.447198",
    "title": "Пункт приема электроники на заводе \"Петромакс\"",
    "content_text": "Металл, Иное, Бытовая техника",
    "address": "г. Лобня Индустриальная улица 9"
  },
  "30595": {
    "id": "30595",
    "recycle_cities_id": 5,
    "lat": "55.947222",
    "lng": "37.5054",
    "title": "Контейнер для приема электроники \"Петромакс\"",
    "content_text": "Иное, Бытовая техника",
    "address": "г. Долгопрудный, Пацаева проспект 7к1"
  },
  "30596": {
    "id": "30596",
    "recycle_cities_id": 5,
    "lat": "55.510069",
    "lng": "36.976703",
    "title": "Экоцентр Second life Селятино",
    "content_text": "Бумага, Стекло, Пластик, Металл, Одежда, Иное, Батарейки, Бытовая техника, Крышечки, Шины",
    "address": "г. Наро-фоминск, п. Селятино, Больничная улица"
  },
  "30597": {
    "id": "30597",
    "recycle_cities_id": 5,
    "lat": "55.345596",
    "lng": "36.202879",
    "title": "Пункт приема шин Second Life",
    "content_text": "Шины",
    "address": "г. Верея, Восточная улица 14а"
  },
  "30600": {
    "id": "30600",
    "recycle_cities_id": 5,
    "lat": "55.752145",
    "lng": "37.584643",
    "title": "Контейнеры в Hyundai Motor Studio",
    "content_text": "Иное, Крышечки",
    "address": "г. Москва, Новый Арбат 21"
  },
  "30602": {
    "id": "30602",
    "recycle_cities_id": 5,
    "lat": "55.629191",
    "lng": "37.637856",
    "title": "Собиратор",
    "content_text": "Бумага, Стекло, Пластик, Металл, Одежда, Иное, Батарейки, Бытовая техника, Тетра Пак, Крышечки",
    "address": "г. Москва, Кавказский бульвар 56стр2"
  },
  "30603": {
    "id": "30603",
    "recycle_cities_id": 5,
    "lat": "55.752605",
    "lng": "37.671151",
    "title": "Сфера Экологии",
    "content_text": "Бумага, Стекло, Пластик, Металл, Иное, Тетра Пак, Крышечки",
    "address": "г. Москва,Нижняя Сыромятническая улица 10стр2"
  },
  "30604": {
    "id": "30604",
    "recycle_cities_id": 5,
    "lat": "55.654161",
    "lng": "37.847833",
    "title": "Пункт приема опасных отходов и текстиля в магазине IKEA Белая дача",
    "content_text": "Иное, Опасные отходы, Батарейки, Лампочки",
    "address": "г. Котельники, 1-й Покровский проезд 4"
  },
  "30605": {
    "id": "30605",
    "recycle_cities_id": 5,
    "lat": "55.655316",
    "lng": "37.846798",
    "title": "Пункт приема вторсырья Мега Белая Дача",
    "content_text": "Бумага, Стекло, Пластик, Металл, Крышечки",
    "address": "г. Котельники, 1-й Покровский проезд 5"
  },
  "30606": {
    "id": "30606",
    "recycle_cities_id": 5,
    "lat": "55.90863",
    "lng": "37.399039",
    "title": "Пункт приема вторсырья Мега Химки",
    "content_text": "Бумага, Стекло, Пластик, Металл, Тетра Пак, Крышечки",
    "address": "г. Химки, микрорайон ИКЕА к1"
  },
  "30607": {
    "id": "30607",
    "recycle_cities_id": 5,
    "lat": "55.910439",
    "lng": "37.400428",
    "title": "Пункт приема опасных отходов и текстиля в магазине IKEA Химки",
    "content_text": "Иное, Опасные отходы, Батарейки, Лампочки",
    "address": "г. Химки, микрорайон ИКЕА к1"
  },
  "30608": {
    "id": "30608",
    "recycle_cities_id": 5,
    "lat": "55.603402",
    "lng": "37.494213",
    "title": "Пункт приема опасных отходов и текстиля в магазине IKEA Теплый Стан",
    "content_text": "Иное, Опасные отходы, Батарейки, Лампочки",
    "address": "г. Москва,п. Сосенское, Калужское шоссе, 21 км"
  },
  "30609": {
    "id": "30609",
    "recycle_cities_id": 5,
    "lat": "55.924941",
    "lng": "37.826404",
    "title": "Мой чистый город",
    "content_text": "Бумага, Пластик, Металл, Иное, Крышечки",
    "address": "г. Королёв, Фрунзе улица 1А"
  },
  "30610": {
    "id": "30610",
    "recycle_cities_id": 5,
    "lat": "55.92251",
    "lng": "37.814142",
    "title": "Мой чистый город",
    "content_text": "Бумага, Пластик, Металл, Иное, Крышечки",
    "address": "г. Королёв, Калинина улица 6В"
  },
  "30611": {
    "id": "30611",
    "recycle_cities_id": 5,
    "lat": "55.923312",
    "lng": "37.662102",
    "title": "Пункт приема электроники \"ЭКО-ФОНД\"",
    "content_text": "Иное, Бытовая техника",
    "address": "д. Бородино, Осташковское шоссе 46"
  },
  "30612": {
    "id": "30612",
    "recycle_cities_id": 5,
    "lat": "56.338145",
    "lng": "38.127546",
    "title": "Пункт приема электроники \"ЭКО-ФОНД\"",
    "content_text": "Иное, Бытовая техника",
    "address": "г. Сергиев Посад, Новоугличское шоссе 79"
  },
  "30613": {
    "id": "30613",
    "recycle_cities_id": 5,
    "lat": "55.425466",
    "lng": "37.533265",
    "title": "Пункт приема электроники \"ЭКО-ФОНД\"",
    "content_text": "Иное, Бытовая техника",
    "address": "г.Подольск, 50 лет ВЛКСМ улица 17б"
  },
  "30614": {
    "id": "30614",
    "recycle_cities_id": 5,
    "lat": "55.835415",
    "lng": "37.326429",
    "title": "Пункт приема электроники \"ЭКО-ФОНД\"",
    "content_text": "Иное, Бытовая техника",
    "address": "г. Красногорск, Речная улица 20к1"
  },
  "30616": {
    "id": "30616",
    "recycle_cities_id": 5,
    "lat": "55.697213",
    "lng": "37.887306",
    "title": "Контейнер для приема электроники \"ЭКО-ФОНД\"",
    "content_text": "Иное, Бытовая техника",
    "address": "г. Люберцы, Митрофанова улица"
  },
  "30620": {
    "id": "30620",
    "recycle_cities_id": 5,
    "lat": "55.77595",
    "lng": "37.691459",
    "title": "Фандомат по приему вторсырья в магазине Пятерочка",
    "content_text": "Пластик, Металл",
    "address": "г. Москва, Большая Почтовая улица 7"
  },
  "30621": {
    "id": "30621",
    "recycle_cities_id": 5,
    "lat": "55.771256",
    "lng": "37.586464",
    "title": "Фандомат по приему вторсырья в магазине Пятерочка",
    "content_text": "Пластик, Металл",
    "address": "г. Москва, Васильевская улица 7"
  },
  "30622": {
    "id": "30622",
    "recycle_cities_id": 5,
    "lat": "55.851485",
    "lng": "37.646597",
    "title": "Фандомат по приему вторсырья в магазине Пятерочка",
    "content_text": "Пластик, Металл",
    "address": "г. Москва, Снежная улица 16к2"
  },
  "30623": {
    "id": "30623",
    "recycle_cities_id": 5,
    "lat": "55.942141",
    "lng": "37.299874",
    "title": "Фандомат по приему вторсырья в магазине Пятерочка",
    "content_text": "Пластик, Металл",
    "address": "г. Химки, мкрн. Сходня, Мичурина улица 25"
  },
  "30624": {
    "id": "30624",
    "recycle_cities_id": 5,
    "lat": "55.733376",
    "lng": "38.956853",
    "title": "Фандомат по приему вторсырья в магазине Пятерочка",
    "content_text": "Пластик, Металл",
    "address": "Московская область, Ликино-Дулево, 1 Мая улица 4"
  },
  "30625": {
    "id": "30625",
    "recycle_cities_id": 5,
    "lat": "55.720352",
    "lng": "37.93793",
    "title": "Прием электротехники на заводе \"Экотехпром\"",
    "content_text": "Металл, Иное, Бытовая техника",
    "address": "г. Москва, Пехорская ул 1В стр3"
  },
  "30626": {
    "id": "30626",
    "recycle_cities_id": 5,
    "lat": "55.868132",
    "lng": "37.519791",
    "title": "Пункт приема электротехники и бытового лома ООО \"Втортехмикс\"",
    "content_text": "Металл, Иное, Бытовая техника",
    "address": "Москва, Ивана Сусанина улица 1б стр 5"
  },
  "30627": {
    "id": "30627",
    "recycle_cities_id": 5,
    "lat": "56.018353",
    "lng": "37.299775",
    "title": "Пункт приема электротехники и бытового лома ООО \"Втортехмикс\"",
    "content_text": "Металл, Иное, Бытовая техника",
    "address": "д.Поярково, Клушинское шоссе, владение 7"
  },
  "30628": {
    "id": "30628",
    "recycle_cities_id": 5,
    "lat": "55.899255",
    "lng": "37.532161",
    "title": "Пункт приема электротехники и бытового лома ООО \"Втортехмикс\"",
    "content_text": "Металл, Иное, Бытовая техника",
    "address": "г. Москва, Вагоноремонтная улица 10а стр18"
  },
  "30630": {
    "id": "30630",
    "recycle_cities_id": 5,
    "lat": "55.899406",
    "lng": "37.490164",
    "title": "Контейнер для приема шин на АЗС \"Газпромнефть\"",
    "content_text": "Шины",
    "address": "г. Химки, Лихачевское шоссе вл13"
  },
  "30631": {
    "id": "30631",
    "recycle_cities_id": 5,
    "lat": "56.37366",
    "lng": "36.68177",
    "title": "Контейнер для приема шин на АЗС \"Газпромнефть\"",
    "content_text": "Шины",
    "address": "г. Клин М-10 92-й километр 1"
  }
}